[
    {
        "locationName": "BEJAR 63",
        "lat": 41.3779881,
        "lng": 2.144406,
        "address": "BEJAR 63 , Barcelona"
    },
    {
        "locationName": "PAU ALSINA 74",
        "lat": 41.4098132,
        "lng": 2.1627611,
        "address": "PAU ALSINA 74, Barcelona"
    },
    {
        "locationName": "MELCIOR DE PALAU 135",
        "lat": 41.3811065,
        "lng": 2.1378804,
        "address": "MELCIOR DE PALAU 135 , Barcelona"
    },
    {
        "locationName": "ESPRONCEDA 348",
        "lat": 41.4183794,
        "lng": 2.1875273,
        "address": "ESPRONCEDA 348 , Barcelona"
    },
    {
        "locationName": "PONS I GALLARZA 33-35",
        "lat": 41.4354202,
        "lng": 2.1877572,
        "address": "PONS I GALLARZA 33-35 , Barcelona"
    },
    {
        "locationName": "CRTA. COLLBLANC 101-113 (HOSPITALET)",
        "lat": 41.3756884,
        "lng": 2.1146253,
        "address": "CRTA. COLLBLANC 101-113 (HOSPITALET), Hospitalet de Llobregat"
    },
    {
        "locationName": "LETAMENDI 13-17-ARAGO 213",
        "lat": 41.3785597,
        "lng": 2.1465594,
        "address": "LETAMENDI 13-17-ARAGO 213 , Barcelona"
    },
    {
        "locationName": "CONCEPCION ARENAL 296-304",
        "lat": 41.433368,
        "lng": 2.1842666,
        "address": "CONCEPCION ARENAL 296-304 , Barcelona"
    },
    {
        "locationName": "LEPANTO 199",
        "lat": 41.4485134,
        "lng": 2.2225269,
        "address": "LEPANTO 199 , Barcelona"
    },
    {
        "locationName": "PADUA 25",
        "lat": 41.4069684,
        "lng": 2.147286,
        "address": "PADUA 25 , Barcelona"
    },
    {
        "locationName": "TAXDIR-SECRETARI COLOMA",
        "lat": 41.408141,
        "lng": 2.1644144,
        "address": "TAXDIR-SECRETARI COLOMA , Barcelona"
    },
    {
        "locationName": "LLORENS I BARBA 66",
        "lat": 41.4126529,
        "lng": 2.1714135,
        "address": "LLORENS I BARBA 66 , Barcelona"
    },
    {
        "locationName": "NN MALLORCA 508",
        "lat": 41.407301,
        "lng": 2.1808951,
        "address": "NN MALLORCA 508 , Barcelona"
    },
    {
        "locationName": "BAILEN 67",
        "lat": 41.3953913,
        "lng": 2.1724707,
        "address": "BAILEN 67 , Barcelona"
    },
    {
        "locationName": "CARRERAS CANDI 62-66",
        "lat": 41.3730014,
        "lng": 2.127764,
        "address": "CARRERAS CANDI 62-66, Barcelona"
    },
    {
        "locationName": "ROMA 120 (PLANTA A)",
        "lat": 41.3873974,
        "lng": 2.168568,
        "address": "ROMA 120 (PLANTA A) , Barcelona"
    },
    {
        "locationName": "DOS DE MAIG 218",
        "lat": 41.40652,
        "lng": 2.1829187,
        "address": "DOS DE MAIG 218 , Barcelona"
    },
    {
        "locationName": "C BELLOCH 161",
        "lat": 41.3873974,
        "lng": 2.168568,
        "address": "C BELLOCH 161 , Barcelona"
    },
    {
        "locationName": "LLULL 17/FCO.ARANDA",
        "lat": 41.3919164,
        "lng": 2.1386037,
        "address": "LLULL 17/FCO.ARANDA , Barcelona"
    },
    {
        "locationName": "SANTA CAROLINA 63",
        "lat": 41.4116873,
        "lng": 2.171092,
        "address": "SANTA CAROLINA 63 , Barcelona"
    },
    {
        "locationName": "SANT JOAN DESP\u00cd \u00b7 RIUS I TAULET 12-16",
        "lat": 41.3657998,
        "lng": 2.0602088,
        "address": "SANT JOAN DESP\u00cd \u00b7 RIUS I TAULET 12-16 , Sant Joan Desp\u00ed"
    },
    {
        "locationName": "DIPUTACIO 119",
        "lat": 41.3827046,
        "lng": 2.156459,
        "address": "DIPUTACIO 119 , Barcelona"
    },
    {
        "locationName": "ENAMORATS 40 - 44",
        "lat": 41.4035409,
        "lng": 2.1810951,
        "address": "ENAMORATS 40 - 44, Barcelona"
    },
    {
        "locationName": "ROCAFORT 98 (INT)",
        "lat": 41.3801978,
        "lng": 2.152579,
        "address": "ROCAFORT 98 (INT) , Barcelona"
    },
    {
        "locationName": "MARQU\u00c9S DE SENTMENAT 54-58",
        "lat": 41.3851406,
        "lng": 2.1380748,
        "address": "MARQU\u00c9S DE SENTMENAT 54-58, Barcelona"
    },
    {
        "locationName": "BRUSELAS 22",
        "lat": 41.3873974,
        "lng": 2.168568,
        "address": "BRUSELAS 22 , Barcelona"
    },
    {
        "locationName": "MONTURIOL 37 (CASTELLD)",
        "lat": 41.2866099,
        "lng": 1.983527,
        "address": "MONTURIOL 37 (CASTELLD) , Barcelona"
    },
    {
        "locationName": "DIPUTACIO 411",
        "lat": 41.3982357,
        "lng": 2.1773037,
        "address": "DIPUTACIO 411 , Barcelona"
    },
    {
        "locationName": "IG.IGLESIAS 56/T.BRETON (ESPLUGUES)",
        "lat": 41.3760045,
        "lng": 2.0791472,
        "address": "IG.IGLESIAS 56/T.BRETON (ESPLUGUES) , Barcelona"
    },
    {
        "locationName": "GRACIA 51-53 (SABADELL)",
        "lat": 41.5462745,
        "lng": 2.1086131,
        "address": "GRACIA 51-53 (SABADELL) , Sabadell"
    },
    {
        "locationName": "GRAN VIA C.C 391 (B-HOTEL)",
        "lat": 41.3765927,
        "lng": 2.1505238,
        "address": "GRAN VIA C.C 391 (B-HOTEL) , Barcelona"
    },
    {
        "locationName": "MISTRAL 50",
        "lat": 41.3762093,
        "lng": 2.1544163,
        "address": "MISTRAL 50 , Barcelona"
    },
    {
        "locationName": "BRUSI 23",
        "lat": 41.400128,
        "lng": 2.1467004,
        "address": "BRUSI 23 , Barcelona"
    },
    {
        "locationName": "VILAMARI 110-112",
        "lat": 41.3802713,
        "lng": 2.1477165,
        "address": "VILAMARI 110-112 , Barcelona"
    },
    {
        "locationName": "BRUC 31",
        "lat": 41.3913965,
        "lng": 2.1730256,
        "address": "BRUC 31 , Barcelona"
    },
    {
        "locationName": "DIPUTACI\u00d3 459",
        "lat": 41.4006029,
        "lng": 2.1804965,
        "address": "DIPUTACI\u00d3 459, Barcelona"
    },
    {
        "locationName": "ALMOGAVERS 74",
        "lat": 41.3966198,
        "lng": 2.1894029,
        "address": "ALMOGAVERS 74 , Barcelona"
    },
    {
        "locationName": "PG. TORRAS I BAGES 146-152",
        "lat": 41.4463498,
        "lng": 2.1907701,
        "address": "PG. TORRAS I BAGES 146-152 , Barcelona"
    },
    {
        "locationName": "BISBE LAGUARDA 4",
        "lat": 41.3797592,
        "lng": 2.1654015,
        "address": "BISBE LAGUARDA 4 , Barcelona"
    },
    {
        "locationName": "ARIBAU 225",
        "lat": 41.3970777,
        "lng": 2.1479779,
        "address": "ARIBAU 225 , Barcelona"
    },
    {
        "locationName": "AVDA ROMA 69",
        "lat": 41.3834209,
        "lng": 2.1494023,
        "address": "AVDA ROMA 69 , Barcelona"
    },
    {
        "locationName": "JEAN MONNET 248-252  (SABADELL)",
        "lat": 41.5462745,
        "lng": 2.1086131,
        "address": "JEAN MONNET 248-252  (SABADELL), Sabadell"
    },
    {
        "locationName": "MORA DE EBRO 65",
        "lat": 41.3873974,
        "lng": 2.168568,
        "address": "MORA DE EBRO 65 , Barcelona"
    },
    {
        "locationName": "REINA AMALIA 20-22",
        "lat": 41.3771482,
        "lng": 2.1665577,
        "address": "REINA AMALIA 20-22 , Barcelona"
    },
    {
        "locationName": "Carretera de Collblanc 117",
        "lat": 41.3757211,
        "lng": 2.1137183,
        "address": "Carretera de Collblanc 117 , Hospitalet"
    },
    {
        "locationName": "MALLORCA 100",
        "lat": 41.3856585,
        "lng": 2.1520486,
        "address": "MALLORCA 100 , Barcelona"
    },
    {
        "locationName": "Pizarro 82-88",
        "lat": 41.5359579,
        "lng": 2.4362715,
        "address": "Pizarro 82-88 , Matar\u00f3"
    },
    {
        "locationName": "DIPUTACIO 303",
        "lat": 41.3927456,
        "lng": 2.1697006,
        "address": "DIPUTACIO 303 , Barcelona"
    },
    {
        "locationName": "LEPANTO",
        "lat": 41.4004361,
        "lng": 2.1390782,
        "address": "LEPANTO, 350 - 354 - INDUSTRIA, 123-125 , Barcelona"
    },
    {
        "locationName": "VICO 20-24 - FREIXA 21",
        "lat": 41.3992053,
        "lng": 2.1358855,
        "address": "VICO 20-24 - FREIXA 21, Barcelona"
    },
    {
        "locationName": "SICILIA 107",
        "lat": 41.3959217,
        "lng": 2.1805829,
        "address": "SICILIA 107, Barcelona"
    },
    {
        "locationName": "RENAIXEN\u00c7A 12-16",
        "lat": 41.4158801,
        "lng": 2.1758705,
        "address": "RENAIXEN\u00c7A 12-16 , Barcelona"
    },
    {
        "locationName": "Rocafort 116",
        "lat": 41.3809216,
        "lng": 2.1513513,
        "address": "Rocafort 116 , Barcelona"
    },
    {
        "locationName": "DIPUTACIO 420",
        "lat": 41.3994603,
        "lng": 2.1793139,
        "address": "DIPUTACIO 420 , Barcelona"
    },
    {
        "locationName": "CAMPO FLORIDO 9",
        "lat": 41.4213466,
        "lng": 2.182519,
        "address": "CAMPO FLORIDO 9 , Barcelona"
    },
    {
        "locationName": "PI SUNYER 12",
        "lat": 41.3873974,
        "lng": 2.168568,
        "address": "PI SUNYER 12 , Barcelona"
    },
    {
        "locationName": "ESTEVE TERRADES 51",
        "lat": 41.4138309,
        "lng": 2.1399689,
        "address": "ESTEVE TERRADES 51 , Barcelona"
    },
    {
        "locationName": "RIO DE JANEIRO 65",
        "lat": -22.9068467,
        "lng": -43.1728965,
        "address": "RIO DE JANEIRO 65 , Barcelona"
    },
    {
        "locationName": "SEPULVEDA 65",
        "lat": 41.3783768,
        "lng": 2.1556764,
        "address": "SEPULVEDA 65 , Barcelona"
    },
    {
        "locationName": "VIA AUGUSTA 117",
        "lat": 41.4005917,
        "lng": 2.1461333,
        "address": "VIA AUGUSTA 117 , Barcelona"
    },
    {
        "locationName": "MERIDIANA",
        "lat": 41.3909133,
        "lng": 2.1836321,
        "address": "MERIDIANA, 5-7/B. MU\u00d1OZ, 36-38 , Barcelona"
    },
    {
        "locationName": "GRAN VIA C.C. 649",
        "lat": 41.3939097,
        "lng": 2.1745722,
        "address": "GRAN VIA C.C. 649 , Barcelona"
    },
    {
        "locationName": "AV. MERIDIANA 256",
        "lat": 41.4191642,
        "lng": 2.1872853,
        "address": "AV. MERIDIANA 256, Barcelona"
    },
    {
        "locationName": "BACARDI 40",
        "lat": 41.3615758,
        "lng": 2.1294234,
        "address": "BACARDI 40 , Hospitalet de Llobregat"
    },
    {
        "locationName": "TAVERN 53-57",
        "lat": 41.3873974,
        "lng": 2.168568,
        "address": "TAVERN 53-57, Barcelona"
    },
    {
        "locationName": "MALLORCA 51",
        "lat": 41.3837792,
        "lng": 2.1490329,
        "address": "MALLORCA 51 , Barcelona"
    },
    {
        "locationName": "PERE I PONS 9-11",
        "lat": 41.3873974,
        "lng": 2.168568,
        "address": "PERE I PONS 9-11 , Barcelona"
    },
    {
        "locationName": "DESCARTES 26-PLATON",
        "lat": 41.3873974,
        "lng": 2.168568,
        "address": "DESCARTES 26-PLATON , Barcelona"
    },
    {
        "locationName": "PRESIDENT MACIA 6",
        "lat": 41.1218008,
        "lng": 1.2389787,
        "address": "PRESIDENT MACIA 6 , Tarragona"
    },
    {
        "locationName": "LEIVA 1",
        "lat": 41.3738711,
        "lng": 2.1406058,
        "address": "LEIVA 1 , Barcelona"
    },
    {
        "locationName": "MACIA BONAPLATA 4 (RIPOLL)",
        "lat": 42.1977798,
        "lng": 2.1914242,
        "address": "MACIA BONAPLATA 4 (RIPOLL) , Ripoll"
    },
    {
        "locationName": "ENTEN\u00c7A 94",
        "lat": 41.3801801,
        "lng": 2.15051,
        "address": "ENTEN\u00c7A 94 , Barcelona"
    },
    {
        "locationName": "AV. DE  LA RIERA DE CASSOLES 61",
        "lat": 41.4053439,
        "lng": 2.1496479,
        "address": "AV. DE  LA RIERA DE CASSOLES 61, Barcelona"
    },
    {
        "locationName": "PI MARGALL  27 (SANT ADRIA)",
        "lat": 41.4271619,
        "lng": 2.2261029,
        "address": "PI MARGALL  27 (SANT ADRIA) , Sant Adri\u00e0"
    },
    {
        "locationName": "PARIS 71",
        "lat": 41.3873974,
        "lng": 2.168568,
        "address": "PARIS 71 , Barcelona"
    },
    {
        "locationName": "GAS 15 (REUS)",
        "lat": 41.1498259,
        "lng": 1.1055321,
        "address": "GAS 15 (REUS) , Reus"
    },
    {
        "locationName": "DIAGONAL 309",
        "lat": 41.3995636,
        "lng": 2.1730448,
        "address": "DIAGONAL 309 , Barcelona"
    },
    {
        "locationName": "PAU CLARIS",
        "lat": 41.3975454,
        "lng": 2.1610937,
        "address": "PAU CLARIS,194-196 CORSEGA,340 , Barcelona"
    },
    {
        "locationName": "ERNEST LLUCH 15 (HOSPITALET)",
        "lat": 41.3749916,
        "lng": 2.1133474,
        "address": "ERNEST LLUCH 15 (HOSPITALET), Hospitalet"
    },
    {
        "locationName": "ROSSELLO 25",
        "lat": 41.3833602,
        "lng": 2.1437283,
        "address": "ROSSELLO 25 , Barcelona"
    },
    {
        "locationName": "GRAN VIA C.C 923-929 (CLOT MEL)",
        "lat": 41.4077514,
        "lng": 2.1924279,
        "address": "GRAN VIA C.C 923-929 (CLOT MEL), Barcelona"
    },
    {
        "locationName": "MARAGALL 120",
        "lat": 41.4216916,
        "lng": 2.1797805,
        "address": "MARAGALL 120 , Barcelona"
    },
    {
        "locationName": "ROCAFORT 174",
        "lat": 41.3834452,
        "lng": 2.148209,
        "address": "ROCAFORT 174 , Barcelona"
    },
    {
        "locationName": "TORREBLANCA 10 (S.JOAN DESPI)",
        "lat": 41.3773044,
        "lng": 2.0584129,
        "address": "TORREBLANCA 10 (S.JOAN DESPI) , Sant Joan Desp\u00ed"
    },
    {
        "locationName": "MONTURIOL 9",
        "lat": 41.4093577,
        "lng": 2.1931959,
        "address": "MONTURIOL 9 , Barcelona"
    },
    {
        "locationName": "B.MU\u00d1OZ 15",
        "lat": 41.3912549,
        "lng": 2.1841479,
        "address": "B.MU\u00d1OZ 15 , Barcelona"
    },
    {
        "locationName": "CARTAGENA 187",
        "lat": 41.4048565,
        "lng": 2.1824324,
        "address": "CARTAGENA 187 , Barcelona"
    },
    {
        "locationName": "DUQUESA D'ORLEANS 30",
        "lat": 41.3986762,
        "lng": 2.1197942,
        "address": "DUQUESA D'ORLEANS 30, Barcelona"
    },
    {
        "locationName": "VIOLANTE DE HUNGRIA 105",
        "lat": 41.3873974,
        "lng": 2.168568,
        "address": "VIOLANTE DE HUNGRIA 105 , Barcelona"
    },
    {
        "locationName": "REINA AMALIA 16",
        "lat": 41.3773629,
        "lng": 2.1663922,
        "address": "REINA AMALIA 16 , Barcelona"
    },
    {
        "locationName": "CAMBRILS 2-8 (REUS)",
        "lat": 41.1521419,
        "lng": 1.1125698,
        "address": "CAMBRILS 2-8 (REUS) , Reus"
    },
    {
        "locationName": "GAS 7 (REUS)",
        "lat": 41.1498259,
        "lng": 1.1055321,
        "address": "GAS 7 (REUS) , Reus"
    },
    {
        "locationName": "MALLORCA 515",
        "lat": 41.4083999,
        "lng": 2.1815736,
        "address": "MALLORCA 515 , Barcelona"
    },
    {
        "locationName": "BILBAO 180-ANDRADE 2 (CLOT MEL)",
        "lat": 41.4093829,
        "lng": 2.1901994,
        "address": "BILBAO 180-ANDRADE 2 (CLOT MEL) , Barcelona"
    },
    {
        "locationName": "ESTEVE TERRADES 37",
        "lat": 41.4134339,
        "lng": 2.1406641,
        "address": "ESTEVE TERRADES 37 , Barcelona"
    },
    {
        "locationName": "Ronda Paisos Catalans 30-34",
        "lat": 41.5535501,
        "lng": 2.4388044,
        "address": "Ronda Paisos Catalans 30-34 , Matar\u00f3"
    },
    {
        "locationName": "MODOLELL 56",
        "lat": 41.4004645,
        "lng": 2.1375438,
        "address": "MODOLELL 56, Barcelona"
    },
    {
        "locationName": "SICILIA 113-115",
        "lat": 41.3961732,
        "lng": 2.180361,
        "address": "SICILIA 113-115 , Barcelona"
    },
    {
        "locationName": "GRAN VIA C.C. 633",
        "lat": 41.3939097,
        "lng": 2.1745722,
        "address": "GRAN VIA C.C. 633 , Barcelona"
    },
    {
        "locationName": "VILADOMAT 319",
        "lat": 41.3754883,
        "lng": 2.1625804,
        "address": "VILADOMAT 319 , Barcelona"
    },
    {
        "locationName": "SANT ANTONI 17-33/SANT PERE (CALELLA)",
        "lat": 41.6161877,
        "lng": 2.6616277,
        "address": "SANT ANTONI 17-33/SANT PERE (CALELLA) , Calella"
    },
    {
        "locationName": "NAPOLES 139",
        "lat": 41.3873974,
        "lng": 2.168568,
        "address": "NAPOLES 139 , Barcelona"
    },
    {
        "locationName": "ARIZALA 84",
        "lat": 41.3790704,
        "lng": 2.1234747,
        "address": "ARIZALA 84 , Barcelona"
    },
    {
        "locationName": "LLUIS COMPANYS 9 (S.JOAN DESPI)",
        "lat": 41.3632915,
        "lng": 2.0588114,
        "address": "LLUIS COMPANYS 9 (S.JOAN DESPI) , Sant Joan Desp\u00ed"
    },
    {
        "locationName": "LLUIS COMPANYS 15 (S.JOAN DESPI)",
        "lat": 41.3595854,
        "lng": 2.0629502,
        "address": "LLUIS COMPANYS 15 (S.JOAN DESPI) , Sant Joan Desp\u00ed"
    },
    {
        "locationName": "LA PAU 20 (MOLLET)",
        "lat": 41.5411881,
        "lng": 2.2188527,
        "address": "LA PAU 20 (MOLLET) , Mollet"
    },
    {
        "locationName": "DOS DE MAIG 202",
        "lat": 41.4058293,
        "lng": 2.1840646,
        "address": "DOS DE MAIG 202 , Barcelona"
    },
    {
        "locationName": "LA CERA 31",
        "lat": 41.3873974,
        "lng": 2.168568,
        "address": "LA CERA 31 , Barcelona"
    },
    {
        "locationName": "LES FLORS 7",
        "lat": 41.3758031,
        "lng": 2.1677045,
        "address": "LES FLORS 7 , Barcelona"
    },
    {
        "locationName": "L'HOSPITALET- RAMBLA MARINA 450",
        "lat": 41.3549693,
        "lng": 2.1052378,
        "address": "L'HOSPITALET- RAMBLA MARINA 450 , Hospitalet de Llobregat"
    },
    {
        "locationName": "PONENT 2-6 (PREMIA)",
        "lat": 41.4876853,
        "lng": 2.353741,
        "address": "PONENT 2-6 (PREMIA) , Premi\u00e0"
    },
    {
        "locationName": "VILADOMAT 134",
        "lat": 41.3811981,
        "lng": 2.1555718,
        "address": "VILADOMAT 134 , Barcelona"
    },
    {
        "locationName": "GRAN VIA C.C. 511",
        "lat": 41.3939097,
        "lng": 2.1745722,
        "address": "GRAN VIA C.C. 511 , Barcelona"
    },
    {
        "locationName": "AV. DE  LA RIERA DE CASSOLES 54",
        "lat": 41.4051753,
        "lng": 2.1503002,
        "address": "AV. DE  LA RIERA DE CASSOLES 54, Barcelona"
    },
    {
        "locationName": "Riera Cirera 66",
        "lat": 41.5520979,
        "lng": 2.435399,
        "address": "Riera Cirera 66 , Ripoll"
    },
    {
        "locationName": "RAMBLA POBLE NOU 117",
        "lat": 41.4035522,
        "lng": 2.1977058,
        "address": "RAMBLA POBLE NOU 117 , Barcelona"
    },
    {
        "locationName": "LLUIS PERICOT 2",
        "lat": 41.3889576,
        "lng": 2.1244873,
        "address": "LLUIS PERICOT 2, Barcelona"
    },
    {
        "locationName": "PI I SUNYER 4",
        "lat": 41.3850828,
        "lng": 2.1740009,
        "address": "PI I SUNYER 4 , Barcelona"
    },
    {
        "locationName": "SALVADORS 2 (HOSP)",
        "lat": 41.3675503,
        "lng": 2.1234658,
        "address": "SALVADORS 2 (HOSP) , Hospitalet de Llobregat"
    },
    {
        "locationName": "RBLA CATALUNYA 55",
        "lat": 41.3906349,
        "lng": 2.1638121,
        "address": "RBLA CATALUNYA 55 , Barcelona"
    },
    {
        "locationName": "AV. DE  LA RIERA DE CASSOLES 65",
        "lat": 41.4056923,
        "lng": 2.1495428,
        "address": "AV. DE  LA RIERA DE CASSOLES 65 , Barcelona"
    },
    {
        "locationName": "MARTI JULIA 6",
        "lat": 41.3754114,
        "lng": 2.1204813,
        "address": "MARTI JULIA 6, Barcelona"
    },
    {
        "locationName": "ENTEN\u00c7A 178-ROSSELLO",
        "lat": 41.384197,
        "lng": 2.1448809,
        "address": "ENTEN\u00c7A 178-ROSSELLO , Barcelona"
    },
    {
        "locationName": "CASANOVA 74-C CENT 218",
        "lat": 41.3873974,
        "lng": 2.168568,
        "address": "CASANOVA 74-C CENT 218 , Barcelona"
    },
    {
        "locationName": "MIQUEL I PLANAS 23-25",
        "lat": 41.4001645,
        "lng": 2.118809,
        "address": "MIQUEL I PLANAS 23-25 , Barcelona"
    },
    {
        "locationName": "REVOLT DEL NEGRE (CORNELL\u00c0)",
        "lat": 41.358884017962694,
        "lng": 2.066086526158307,
        "address": "REVOLT DEL NEGRE (CORNELL\u00c0) , Cornell\u00e0"
    },
    {
        "locationName": "GAS 13 (REUS)",
        "lat": 41.1498259,
        "lng": 1.1055321,
        "address": "GAS 13 (REUS) , Reus"
    },
    {
        "locationName": "AV MASNOU 10-12 (HOSP)",
        "lat": 41.3703004,
        "lng": 2.1055633,
        "address": "AV MASNOU 10-12 (HOSP) , Hospitalet de Llobregat"
    },
    {
        "locationName": "CAMBRILS 10-16 (REUS)",
        "lat": 41.1516284,
        "lng": 1.1129563,
        "address": "CAMBRILS 10-16 (REUS) , Reus"
    },
    {
        "locationName": "PG SANT GERVASI 4",
        "lat": 41.4071716,
        "lng": 2.1343984,
        "address": "PG SANT GERVASI 4 , Barcelona"
    },
    {
        "locationName": "PALOMAR 24",
        "lat": 41.4419943,
        "lng": 2.1896149,
        "address": "PALOMAR 24 , Barcelona"
    },
    {
        "locationName": "CRTA ESPLUGUES 14 (CORNELLA)",
        "lat": 41.3565454,
        "lng": 2.0686769,
        "address": "CRTA ESPLUGUES 14 (CORNELLA) , Cornell\u00e0"
    },
    {
        "locationName": "ROCAFORT 39",
        "lat": 41.3771886,
        "lng": 2.1559403,
        "address": "ROCAFORT 39 , Barcelona"
    },
    {
        "locationName": "ROCAFORT 39 (INT)",
        "lat": 41.3771886,
        "lng": 2.1559403,
        "address": "ROCAFORT 39 (INT) , Barcelona"
    },
    {
        "locationName": "SANTALO 126 PLATO 7",
        "lat": 41.3997958,
        "lng": 2.1408343,
        "address": "SANTALO 126 PLATO 7 , Barcelona"
    },
    {
        "locationName": "GRAN VIA CARLES III 58",
        "lat": 41.3835998,
        "lng": 2.1282425,
        "address": "GRAN VIA CARLES III 58 , Barcelona"
    },
    {
        "locationName": "VALENCIA 171",
        "lat": 41.3886122,
        "lng": 2.1576849,
        "address": "VALENCIA 171 , Barcelona"
    },
    {
        "locationName": "CORSEGA 187 VILLARROEL 172",
        "lat": 41.3891503,
        "lng": 2.1513595,
        "address": "CORSEGA 187 VILLARROEL 172 , Barcelona"
    },
    {
        "locationName": "BARCELONA 68 (HOSP)",
        "lat": 41.3661865,
        "lng": 2.1164942,
        "address": "BARCELONA 68 (HOSP) , Hospitalet de Llobregat"
    },
    {
        "locationName": "BALMES-FORASTE 4",
        "lat": 41.4100163,
        "lng": 2.137701,
        "address": "BALMES-FORASTE 4 , Barcelona"
    },
    {
        "locationName": "GAS 5 (REUS)",
        "lat": 41.1498259,
        "lng": 1.1055321,
        "address": "GAS 5 (REUS) , Reus"
    },
    {
        "locationName": "LOPE DE VEGA 20 (GRANOLLERS)",
        "lat": 41.6160192,
        "lng": 2.2928996,
        "address": "LOPE DE VEGA 20 (GRANOLLERS) , Granollers"
    },
    {
        "locationName": "ROMA 43-ENTEN\u00c7A",
        "lat": 41.3822445,
        "lng": 2.1465613,
        "address": "ROMA 43-ENTEN\u00c7A , Barcelona"
    },
    {
        "locationName": "PL.EUROPA3-4  (GIRONA)",
        "lat": 41.9756609,
        "lng": 2.8144769,
        "address": "PL.EUROPA3-4  (GIRONA) , Girona"
    },
    {
        "locationName": "PL.EUROPA 1-2 (GIRONA)",
        "lat": 41.9759408,
        "lng": 2.8142617,
        "address": "PL.EUROPA 1-2 (GIRONA) , Girona"
    },
    {
        "locationName": "CASANOVA 59",
        "lat": 41.3850472,
        "lng": 2.1591236,
        "address": "CASANOVA 59 , Barcelona"
    },
    {
        "locationName": "CONCL TRENTO 90",
        "lat": 41.3873974,
        "lng": 2.168568,
        "address": "CONCL TRENTO 90 , Barcelona"
    },
    {
        "locationName": "BERGNES CASES 21-23",
        "lat": 41.3873974,
        "lng": 2.168568,
        "address": "BERGNES CASES 21-23 , Barcelona"
    },
    {
        "locationName": "TAMARIT 144",
        "lat": 41.3780808,
        "lng": 2.1603887,
        "address": "TAMARIT 144 , Barcelona"
    },
    {
        "locationName": "AVD.CONSTITUCION 20",
        "lat": 37.1852411,
        "lng": -3.6056211,
        "address": "AVD.CONSTITUCION 20, Granada"
    }
]